{"meta":{"code":200,"requestId":"5c3524074434b96ec0bea7b9"},"response":{"suggestedFilters":{"header":"Tap to show:","filters":[{"name":"Open now","key":"openNow"}]},"suggestedRadius":1521,"headerLocation":"Overtoomse Veld","headerFullLocation":"Overtoomse Veld, Amsterdam","headerLocationGranularity":"neighborhood","totalResults":140,"suggestedBounds":{"ne":{"lat":52.37651009328933,"lng":4.859570793423781},"sw":{"lat":52.3500090474976,"lng":4.81725514256227}},"groups":[{"type":"Recommended Places","name":"recommended","items":[{"reasons":{"count":0,"items":[{"summary":"This spot is popular","type":"general","reasonName":"globalInteractionReason"}]},"venue":{"id":"4bfc1a6b3cebd13a6aa497d8","name":"VLLA","location":{"address":"Willem Roelofsstraat 9","crossStreet":"Jan Tooropstraat","lat":52.36346325548891,"lng":4.83485286685,"labeledLatLngs":[{"label":"display","lat":52.36346325548891,"lng":4.83485286685}],"distance":183,"postalCode":"1062 JX","cc":"NL","city":"Amsterdam","state":"North Holland","country":"Netherlands","formattedAddress":["Willem Roelofsstraat 9 (Jan Tooropstraat)","1062 JX Amsterdam","Netherlands"]},"categories":[{"id":"4bf58dd8d48988d11f941735","name":"Nightclub","pluralName":"Nightclubs","shortName":"Nightclub","icon":{"prefix":"https:\/\/ss3.4sqi.net\/img\/categories_v2\/nightlife\/nightclub_","suffix":".png"},"primary":true}],"photos":{"count":0,"groups":[]}},"referralId":"e-0-4bfc1a6b3cebd13a6aa497d8-0"},{"reasons":{"count":0,"items":[{"summary":"This spot is popular","type":"general","reasonName":"globalInteractionReason"}]},"venue":{"id":"4b45ba5af964a5209f0f26e3","name":"Palestra Wellnessclub","location":{"address":"Marius Bauerstraat 113-233","lat":52.36241490115632,"lng":4.837726947304561,"labeledLatLngs":[{"label":"display","lat":52.36241490115632,"lng":4.837726947304561}],"distance":108,"postalCode":"1062 AK","cc":"NL","city":"Amsterdam","state":"North Holland","country":"Netherlands","formattedAddress":["Marius Bauerstraat 113-233","1062 AK Amsterdam","Netherlands"]},"categories":[{"id":"4bf58dd8d48988d176941735","name":"Gym","pluralName":"Gyms","shortName":"Gym","icon":{"prefix":"https:\/\/ss3.4sqi.net\/img\/categories_v2\/building\/gym_","suffix":".png"},"primary":true}],"photos":{"count":0,"groups":[]}},"referralId":"e-0-4b45ba5af964a5209f0f26e3-1"},{"reasons":{"count":0,"items":[{"summary":"This spot is popular","type":"general","reasonName":"globalInteractionReason"}]},"venue":{"id":"4a27071ef964a520fc8c1fe3","name":"Rembrandtpark","location":{"address":"Orteliuskade","lat":52.36346734235167,"lng":4.846644401550292,"labeledLatLngs":[{"label":"display","lat":52.36346734235167,"lng":4.846644401550292}],"distance":618,"postalCode":"1057","cc":"NL","city":"Amsterdam","state":"North Holland","country":"Netherlands","formattedAddress":["Orteliuskade","1057 Amsterdam","Netherlands"]},"categories":[{"id":"4bf58dd8d48988d163941735","name":"Park","pluralName":"Parks","shortName":"Park","icon":{"prefix":"https:\/\/ss3.4sqi.net\/img\/categories_v2\/parks_outdoors\/park_","suffix":".png"},"primary":true}],"photos":{"count":0,"groups":[]}},"referralId":"e-0-4a27071ef964a520fc8c1fe3-2"},{"reasons":{"count":0,"items":[{"summary":"This spot is popular","type":"general","reasonName":"globalInteractionReason"}]},"venue":{"id":"4e9806eae5fab92b21a2fcfb","name":"Ramada Apollo Amsterdam Centre","location":{"address":"Staalmeesterslaan 410","lat":52.367938066865236,"lng":4.844055049670979,"labeledLatLngs":[{"label":"display","lat":52.367938066865236,"lng":4.844055049670979}],"distance":672,"postalCode":"1057 PH","cc":"NL","city":"Amsterdam","state":"North Holland","country":"Netherlands","formattedAddress":["Staalmeesterslaan 410","1057 PH Amsterdam","Netherlands"]},"categories":[{"id":"4bf58dd8d48988d1fa931735","name":"Hotel","pluralName":"Hotels","shortName":"Hotel","icon":{"prefix":"https:\/\/ss3.4sqi.net\/img\/categories_v2\/travel\/hotel_","suffix":".png"},"primary":true}],"photos":{"count":0,"groups":[]}},"referralId":"e-0-4e9806eae5fab92b21a2fcfb-3"},{"reasons":{"count":0,"items":[{"summary":"This spot is popular","type":"general","reasonName":"globalInteractionReason"}]},"venue":{"id":"5a90748ee07550520965c49c","name":"Puck","location":{"address":"Jan Evertsenstraat 747","lat":52.36977034140408,"lng":4.835334592023229,"labeledLatLngs":[{"label":"display","lat":52.36977034140408,"lng":4.835334592023229}],"distance":726,"postalCode":"1061 XZ","cc":"NL","city":"Amsterdam","state":"North Holland","country":"Netherlands","formattedAddress":["Jan Evertsenstraat 747","1061 XZ Amsterdam","Netherlands"]},"categories":[{"id":"4bf58dd8d48988d1e1931735","name":"Arcade","pluralName":"Arcades","shortName":"Arcade","icon":{"prefix":"https:\/\/ss3.4sqi.net\/img\/categories_v2\/arts_entertainment\/arcade_","suffix":".png"},"primary":true}],"photos":{"count":0,"groups":[]}},"referralId":"e-0-5a90748ee07550520965c49c-4"},{"reasons":{"count":0,"items":[{"summary":"This spot is popular","type":"general","reasonName":"globalInteractionReason"}]},"venue":{"id":"5676687c498ed7a021aa4869","name":"De School","location":{"address":"Dr. Jan van Breemenstraat 1","lat":52.369971399376354,"lng":4.843559869112669,"labeledLatLngs":[{"label":"display","lat":52.369971399376354,"lng":4.843559869112669}],"distance":839,"postalCode":"1056 AB","cc":"NL","city":"Amsterdam","state":"North Holland","country":"Netherlands","formattedAddress":["Dr. Jan van Breemenstraat 1","1056 AB Amsterdam","Netherlands"]},"categories":[{"id":"4bf58dd8d48988d11f941735","name":"Nightclub","pluralName":"Nightclubs","shortName":"Nightclub","icon":{"prefix":"https:\/\/ss3.4sqi.net\/img\/categories_v2\/nightlife\/nightclub_","suffix":".png"},"primary":true}],"photos":{"count":0,"groups":[]}},"referralId":"e-0-5676687c498ed7a021aa4869-5"},{"reasons":{"count":0,"items":[{"summary":"This spot is popular","type":"general","reasonName":"globalInteractionReason"}]},"venue":{"id":"5b3bb1b086bc49002c9f07d3","name":"Bar Restaurant LELY","location":{"address":"Cornelis Lelyplein 4","lat":52.356784239588315,"lng":4.835186004638672,"labeledLatLngs":[{"label":"display","lat":52.356784239588315,"lng":4.835186004638672}],"distance":752,"postalCode":"1062HX","cc":"NL","city":"Amsterdam","state":"North Holland","country":"Netherlands","formattedAddress":["Cornelis Lelyplein 4","1062HX Amsterdam","Netherlands"]},"categories":[{"id":"52e81612bcbc57f1066b7a00","name":"Comfort Food Restaurant","pluralName":"Comfort Food Restaurants","shortName":"Comfort Food","icon":{"prefix":"https:\/\/ss3.4sqi.net\/img\/categories_v2\/food\/default_","suffix":".png"},"primary":true}],"photos":{"count":0,"groups":[]}},"referralId":"e-0-5b3bb1b086bc49002c9f07d3-6"},{"reasons":{"count":0,"items":[{"summary":"This spot is popular","type":"general","reasonName":"globalInteractionReason"}]},"venue":{"id":"4acf2d18f964a52098d220e3","name":"WestCord Fashion Hotel","location":{"address":"Hendrikje Stoffelsstraat 1","lat":52.35769498544328,"lng":4.844535464378366,"labeledLatLngs":[{"label":"display","lat":52.35769498544328,"lng":4.844535464378366}],"distance":791,"postalCode":"1058GC","cc":"NL","city":"Amsterdam","state":"North Holland","country":"Netherlands","formattedAddress":["Hendrikje Stoffelsstraat 1","1058GC Amsterdam","Netherlands"]},"categories":[{"id":"4bf58dd8d48988d1fa931735","name":"Hotel","pluralName":"Hotels","shortName":"Hotel","icon":{"prefix":"https:\/\/ss3.4sqi.net\/img\/categories_v2\/travel\/hotel_","suffix":".png"},"primary":true}],"photos":{"count":0,"groups":[]}},"referralId":"e-0-4acf2d18f964a52098d220e3-7"},{"reasons":{"count":0,"items":[{"summary":"This spot is popular","type":"general","reasonName":"globalInteractionReason"}]},"venue":{"id":"56cdef6bcd1051ef217ec369","name":"Het Gymlokaal","location":{"address":"Doctor Jan van Breemenstraat 1","lat":52.37077715658763,"lng":4.843331320286025,"labeledLatLngs":[{"label":"display","lat":52.37077715658763,"lng":4.843331320286025}],"distance":911,"postalCode":"1056 AB","cc":"NL","city":"Amsterdam","state":"North Holland","country":"Netherlands","formattedAddress":["Doctor Jan van Breemenstraat 1","1056 AB Amsterdam","Netherlands"]},"categories":[{"id":"4bf58dd8d48988d176941735","name":"Gym","pluralName":"Gyms","shortName":"Gym","icon":{"prefix":"https:\/\/ss3.4sqi.net\/img\/categories_v2\/building\/gym_","suffix":".png"},"primary":true}],"photos":{"count":0,"groups":[]}},"referralId":"e-0-56cdef6bcd1051ef217ec369-8"},{"reasons":{"count":0,"items":[{"summary":"This spot is popular","type":"general","reasonName":"globalInteractionReason"}]},"venue":{"id":"568ffedb498ea8583d0fc707","name":"Restaurant DS","location":{"address":"De School","crossStreet":"Jan van Breemenstraat 3","lat":52.370630708193296,"lng":4.84345967800305,"labeledLatLngs":[{"label":"display","lat":52.370630708193296,"lng":4.84345967800305}],"distance":901,"postalCode":"1056 AB","cc":"NL","city":"Amsterdam","state":"North Holland","country":"Netherlands","formattedAddress":["De School (Jan van Breemenstraat 3)","1056 AB Amsterdam","Netherlands"]},"categories":[{"id":"4bf58dd8d48988d1c4941735","name":"Restaurant","pluralName":"Restaurants","shortName":"Restaurant","icon":{"prefix":"https:\/\/ss3.4sqi.net\/img\/categories_v2\/food\/default_","suffix":".png"},"primary":true}],"photos":{"count":0,"groups":[]}},"referralId":"e-0-568ffedb498ea8583d0fc707-9"},{"reasons":{"count":0,"items":[{"summary":"This spot is popular","type":"general","reasonName":"globalInteractionReason"}]},"venue":{"id":"50ec1fc5067d4553b598dd12","name":"YagoY","location":{"address":"Postjesweg 106-1","crossStreet":"Hoofdweg","lat":52.36432526916182,"lng":4.852991754287267,"labeledLatLngs":[{"label":"display","lat":52.36432526916182,"lng":4.852991754287267}],"distance":1054,"postalCode":"1057EG","cc":"NL","city":"Amsterdam","state":"North Holland","country":"Netherlands","formattedAddress":["Postjesweg 106-1 (Hoofdweg)","1057EG Amsterdam","Netherlands"]},"categories":[{"id":"4bf58dd8d48988d102941735","name":"Yoga Studio","pluralName":"Yoga Studios","shortName":"Yoga Studio","icon":{"prefix":"https:\/\/ss3.4sqi.net\/img\/categories_v2\/shops\/gym_yogastudio_","suffix":".png"},"primary":true}],"photos":{"count":0,"groups":[]},"venuePage":{"id":"47371778"}},"referralId":"e-0-50ec1fc5067d4553b598dd12-10"},{"reasons":{"count":0,"items":[{"summary":"This spot is popular","type":"general","reasonName":"globalInteractionReason"}]},"venue":{"id":"501fd46a83025a18ee1d83e1","name":"Floor17","location":{"address":"Staalmeesterslaan 410","lat":52.36801328462829,"lng":4.844100033738898,"labeledLatLngs":[{"label":"display","lat":52.36801328462829,"lng":4.844100033738898}],"distance":680,"postalCode":"1057 PH","cc":"NL","city":"Amsterdam","state":"North Holland","country":"Netherlands","formattedAddress":["Staalmeesterslaan 410","1057 PH Amsterdam","Netherlands"]},"categories":[{"id":"4bf58dd8d48988d1c4941735","name":"Restaurant","pluralName":"Restaurants","shortName":"Restaurant","icon":{"prefix":"https:\/\/ss3.4sqi.net\/img\/categories_v2\/food\/default_","suffix":".png"},"primary":true}],"photos":{"count":0,"groups":[]},"venuePage":{"id":"40049208"}},"referralId":"e-0-501fd46a83025a18ee1d83e1-11"},{"reasons":{"count":0,"items":[{"summary":"This spot is popular","type":"general","reasonName":"globalInteractionReason"}]},"venue":{"id":"56f69173498ee2d7e87bbea8","name":"IJsmanschap","location":{"address":"Van Spilbergenstraat 2hs","lat":52.36434637425935,"lng":4.852322770825281,"labeledLatLngs":[{"label":"display","lat":52.36434637425935,"lng":4.852322770825281}],"distance":1009,"postalCode":"1057 RG","cc":"NL","city":"Amsterdam","state":"North Holland","country":"Netherlands","formattedAddress":["Van Spilbergenstraat 2hs","1057 RG Amsterdam","Netherlands"]},"categories":[{"id":"4bf58dd8d48988d1c9941735","name":"Ice Cream Shop","pluralName":"Ice Cream Shops","shortName":"Ice Cream","icon":{"prefix":"https:\/\/ss3.4sqi.net\/img\/categories_v2\/food\/icecream_","suffix":".png"},"primary":true}],"photos":{"count":0,"groups":[]}},"referralId":"e-0-56f69173498ee2d7e87bbea8-12"},{"reasons":{"count":0,"items":[{"summary":"This spot is popular","type":"general","reasonName":"globalInteractionReason"}]},"venue":{"id":"530e107b498e7cf339055332","name":"White Label Coffee","location":{"address":"Jan Evertsenstraat 136","lat":52.37034595823542,"lng":4.851584285609294,"labeledLatLngs":[{"label":"display","lat":52.37034595823542,"lng":4.851584285609294}],"distance":1229,"postalCode":"1056EK","cc":"NL","city":"Amsterdam","state":"North Holland","country":"Netherlands","formattedAddress":["Jan Evertsenstraat 136","1056EK Amsterdam","Netherlands"]},"categories":[{"id":"4bf58dd8d48988d1e0931735","name":"Coffee Shop","pluralName":"Coffee Shops","shortName":"Coffee Shop","icon":{"prefix":"https:\/\/ss3.4sqi.net\/img\/categories_v2\/food\/coffeeshop_","suffix":".png"},"primary":true}],"photos":{"count":0,"groups":[]}},"referralId":"e-0-530e107b498e7cf339055332-13"},{"reasons":{"count":0,"items":[{"summary":"This spot is popular","type":"general","reasonName":"globalInteractionReason"}]},"venue":{"id":"54969b7c498e427c8516c518","name":"Caffènation","location":{"address":"Theophile de Bockstraat 37","lat":52.35480430326035,"lng":4.849351904199482,"labeledLatLngs":[{"label":"display","lat":52.35480430326035,"lng":4.849351904199482}],"distance":1247,"postalCode":"1058 TX","cc":"NL","city":"Amsterdam","state":"North Holland","country":"Netherlands","formattedAddress":["Theophile de Bockstraat 37","1058 TX Amsterdam","Netherlands"]},"categories":[{"id":"4bf58dd8d48988d1e0931735","name":"Coffee Shop","pluralName":"Coffee Shops","shortName":"Coffee Shop","icon":{"prefix":"https:\/\/ss3.4sqi.net\/img\/categories_v2\/food\/coffeeshop_","suffix":".png"},"primary":true}],"photos":{"count":0,"groups":[]}},"referralId":"e-0-54969b7c498e427c8516c518-14"},{"reasons":{"count":0,"items":[{"summary":"This spot is popular","type":"general","reasonName":"globalInteractionReason"}]},"venue":{"id":"5813909f38fa0d16307210ce","name":"Bartack","location":{"address":"Postjesweg 124","lat":52.36435714314565,"lng":4.850863131025757,"labeledLatLngs":[{"label":"display","lat":52.36435714314565,"lng":4.850863131025757}],"distance":911,"postalCode":"1057 EH","cc":"NL","city":"Amsterdam","state":"North Holland","country":"Netherlands","formattedAddress":["Postjesweg 124","1057 EH Amsterdam","Netherlands"]},"categories":[{"id":"4bf58dd8d48988d116941735","name":"Bar","pluralName":"Bars","shortName":"Bar","icon":{"prefix":"https:\/\/ss3.4sqi.net\/img\/categories_v2\/nightlife\/pub_","suffix":".png"},"primary":true}],"photos":{"count":0,"groups":[]}},"referralId":"e-0-5813909f38fa0d16307210ce-15"},{"reasons":{"count":0,"items":[{"summary":"This spot is popular","type":"general","reasonName":"globalInteractionReason"}]},"venue":{"id":"4a26fff1f964a5208a811fe3","name":"Café Cook","location":{"address":"James Cookstraat 2HS","crossStreet":"Jan Maijenplein","lat":52.37120832674628,"lng":4.852791596660389,"labeledLatLngs":[{"label":"display","lat":52.37120832674628,"lng":4.852791596660389}],"distance":1353,"postalCode":"1056 RZ","cc":"NL","city":"Amsterdam","state":"North Holland","country":"Netherlands","formattedAddress":["James Cookstraat 2HS (Jan Maijenplein)","1056 RZ Amsterdam","Netherlands"]},"categories":[{"id":"4bf58dd8d48988d11b941735","name":"Pub","pluralName":"Pubs","shortName":"Pub","icon":{"prefix":"https:\/\/ss3.4sqi.net\/img\/categories_v2\/nightlife\/pub_","suffix":".png"},"primary":true}],"photos":{"count":0,"groups":[]}},"referralId":"e-0-4a26fff1f964a5208a811fe3-16"},{"reasons":{"count":0,"items":[{"summary":"This spot is popular","type":"general","reasonName":"globalInteractionReason"}]},"venue":{"id":"51961b3e5019b68bfa227e93","name":"The Student Hotel Amsterdam West","location":{"address":"Jan van Galenstraat 335","crossStreet":"Jan Tooropstraat","lat":52.3720356747386,"lng":4.836239939330056,"labeledLatLngs":[{"label":"display","lat":52.3720356747386,"lng":4.836239939330056}],"distance":967,"postalCode":"1061 AZ","cc":"NL","city":"Amsterdam","state":"North Holland","country":"Netherlands","formattedAddress":["Jan van Galenstraat 335 (Jan Tooropstraat)","1061 AZ Amsterdam","Netherlands"]},"categories":[{"id":"4bf58dd8d48988d1fa931735","name":"Hotel","pluralName":"Hotels","shortName":"Hotel","icon":{"prefix":"https:\/\/ss3.4sqi.net\/img\/categories_v2\/travel\/hotel_","suffix":".png"},"primary":true}],"photos":{"count":0,"groups":[]}},"referralId":"e-0-51961b3e5019b68bfa227e93-17"},{"reasons":{"count":0,"items":[{"summary":"This spot is popular","type":"general","reasonName":"globalInteractionReason"}]},"venue":{"id":"54c293df498e8105a7291495","name":"Frits","location":{"address":"Jan Evertsenstraat 135","lat":52.370244615037905,"lng":4.8513496890111805,"labeledLatLngs":[{"label":"display","lat":52.370244615037905,"lng":4.8513496890111805}],"distance":1209,"cc":"NL","city":"Amsterdam","state":"North Holland","country":"Netherlands","formattedAddress":["Jan Evertsenstraat 135","Amsterdam","Netherlands"]},"categories":[{"id":"4bf58dd8d48988d117941735","name":"Beer Garden","pluralName":"Beer Gardens","shortName":"Beer Garden","icon":{"prefix":"https:\/\/ss3.4sqi.net\/img\/categories_v2\/nightlife\/beergarden_","suffix":".png"},"primary":true}],"photos":{"count":0,"groups":[]}},"referralId":"e-0-54c293df498e8105a7291495-18"},{"reasons":{"count":0,"items":[{"summary":"This spot is popular","type":"general","reasonName":"globalInteractionReason"}]},"venue":{"id":"57136767cd10f0fafc772b48","name":"T's","location":{"address":"Jan Evertsenstraat 89","lat":52.37052734806471,"lng":4.8538089261109825,"labeledLatLngs":[{"label":"display","lat":52.37052734806471,"lng":4.8538089261109825}],"distance":1361,"postalCode":"1057 BT","cc":"NL","city":"Amsterdam","state":"North Holland","country":"Netherlands","formattedAddress":["Jan Evertsenstraat 89","1057 BT Amsterdam","Netherlands"]},"categories":[{"id":"4bf58dd8d48988d1dc931735","name":"Tea Room","pluralName":"Tea Rooms","shortName":"Tea Room","icon":{"prefix":"https:\/\/ss3.4sqi.net\/img\/categories_v2\/food\/tearoom_","suffix":".png"},"primary":true}],"photos":{"count":0,"groups":[]}},"referralId":"e-0-57136767cd10f0fafc772b48-19"},{"reasons":{"count":0,"items":[{"summary":"This spot is popular","type":"general","reasonName":"globalInteractionReason"}]},"venue":{"id":"4ba3b9fef964a520d45838e3","name":"Sloterplas","location":{"address":"Sloterpark","lat":52.36590445770389,"lng":4.819178581237793,"labeledLatLngs":[{"label":"display","lat":52.36590445770389,"lng":4.819178581237793}],"distance":1279,"postalCode":"1065 DA","cc":"NL","city":"Amsterdam","state":"North Holland","country":"Netherlands","formattedAddress":["Sloterpark","1065 DA Amsterdam","Netherlands"]},"categories":[{"id":"4bf58dd8d48988d161941735","name":"Lake","pluralName":"Lakes","shortName":"Lake","icon":{"prefix":"https:\/\/ss3.4sqi.net\/img\/categories_v2\/parks_outdoors\/lake_","suffix":".png"},"primary":true}],"photos":{"count":0,"groups":[]}},"referralId":"e-0-4ba3b9fef964a520d45838e3-20"},{"reasons":{"count":0,"items":[{"summary":"This spot is popular","type":"general","reasonName":"globalInteractionReason"}]},"venue":{"id":"515adc59e4b03c0e2b3cf6e9","name":"Rembrantpark","location":{"lat":52.358583379170256,"lng":4.848369258341258,"labeledLatLngs":[{"label":"display","lat":52.358583379170256,"lng":4.848369258341258}],"distance":909,"cc":"NL","country":"Netherlands","formattedAddress":["Netherlands"]},"categories":[{"id":"4bf58dd8d48988d163941735","name":"Park","pluralName":"Parks","shortName":"Park","icon":{"prefix":"https:\/\/ss3.4sqi.net\/img\/categories_v2\/parks_outdoors\/park_","suffix":".png"},"primary":true}],"photos":{"count":0,"groups":[]}},"referralId":"e-0-515adc59e4b03c0e2b3cf6e9-21"},{"reasons":{"count":0,"items":[{"summary":"This spot is popular","type":"general","reasonName":"globalInteractionReason"}]},"venue":{"id":"4c5c91ab9b28d13a80345770","name":"Boerejongens","location":{"address":"Baarsjesweg 239","lat":52.36229982767129,"lng":4.8576473547482575,"labeledLatLngs":[{"label":"display","lat":52.36229982767129,"lng":4.8576473547482575}],"distance":1371,"postalCode":"1058 AA","cc":"NL","city":"Amsterdam","state":"North Holland","country":"Netherlands","formattedAddress":["Baarsjesweg 239","1058 AA Amsterdam","Netherlands"]},"categories":[{"id":"52c71aaf3cf9994f4e043d17","name":"Marijuana Dispensary","pluralName":"Marijuana Dispensaries","shortName":"Dispensary","icon":{"prefix":"https:\/\/ss3.4sqi.net\/img\/categories_v2\/shops\/dispensary_","suffix":".png"},"primary":true}],"photos":{"count":0,"groups":[]}},"referralId":"e-0-4c5c91ab9b28d13a80345770-22"},{"reasons":{"count":0,"items":[{"summary":"This spot is popular","type":"general","reasonName":"globalInteractionReason"}]},"venue":{"id":"59ee4a0266f3cd46ec121fa1","name":"Xo Hotel Couture","location":{"lat":52.35121364048814,"lng":4.841265174798271,"labeledLatLngs":[{"label":"display","lat":52.35121364048814,"lng":4.841265174798271}],"distance":1378,"cc":"NL","country":"Netherlands","formattedAddress":["Netherlands"]},"categories":[{"id":"4bf58dd8d48988d1fa931735","name":"Hotel","pluralName":"Hotels","shortName":"Hotel","icon":{"prefix":"https:\/\/ss3.4sqi.net\/img\/categories_v2\/travel\/hotel_","suffix":".png"},"primary":true}],"photos":{"count":0,"groups":[]}},"referralId":"e-0-59ee4a0266f3cd46ec121fa1-23"},{"reasons":{"count":0,"items":[{"summary":"This spot is popular","type":"general","reasonName":"globalInteractionReason"}]},"venue":{"id":"4c93a8ccf244b1f7edcf1a1d","name":"Zurich","location":{"address":"Mercatorplein 2b","lat":52.36951084189358,"lng":4.851021111202159,"labeledLatLngs":[{"label":"display","lat":52.36951084189358,"lng":4.851021111202159}],"distance":1141,"postalCode":"1057 CB","cc":"NL","city":"Amsterdam","state":"North Holland","country":"Netherlands","formattedAddress":["Mercatorplein 2b","1057 CB Amsterdam","Netherlands"]},"categories":[{"id":"4bf58dd8d48988d116941735","name":"Bar","pluralName":"Bars","shortName":"Bar","icon":{"prefix":"https:\/\/ss3.4sqi.net\/img\/categories_v2\/nightlife\/pub_","suffix":".png"},"primary":true}],"photos":{"count":0,"groups":[]}},"referralId":"e-0-4c93a8ccf244b1f7edcf1a1d-24"},{"reasons":{"count":0,"items":[{"summary":"This spot is popular","type":"general","reasonName":"globalInteractionReason"}]},"venue":{"id":"5990de4ea87921282a12074b","name":"Florya Restaurant & Café","location":{"address":"10 Bos en Lommerplantsoen","lat":52.3753055002988,"lng":4.845938595853069,"labeledLatLngs":[{"label":"display","lat":52.3753055002988,"lng":4.845938595853069}],"distance":1444,"postalCode":"1055 SC","cc":"NL","city":"Amsterdam","state":"North Holland","country":"Netherlands","formattedAddress":["10 Bos en Lommerplantsoen","1055 SC Amsterdam","Netherlands"]},"categories":[{"id":"4bf58dd8d48988d1c4941735","name":"Restaurant","pluralName":"Restaurants","shortName":"Restaurant","icon":{"prefix":"https:\/\/ss3.4sqi.net\/img\/categories_v2\/food\/default_","suffix":".png"},"primary":true}],"photos":{"count":0,"groups":[]}},"referralId":"e-0-5990de4ea87921282a12074b-25"},{"reasons":{"count":0,"items":[{"summary":"This spot is popular","type":"general","reasonName":"globalInteractionReason"}]},"venue":{"id":"4b153455f964a5204fa923e3","name":"Albert Heijn","location":{"address":"August Allebéplein 12","lat":52.36374560760827,"lng":4.837707522097771,"labeledLatLngs":[{"label":"display","lat":52.36374560760827,"lng":4.837707522097771}],"distance":41,"postalCode":"1062 AC","cc":"NL","city":"Amsterdam","state":"North Holland","country":"Netherlands","formattedAddress":["August Allebéplein 12","1062 AC Amsterdam","Netherlands"]},"categories":[{"id":"52f2ab2ebcbc57f1066b8b46","name":"Supermarket","pluralName":"Supermarkets","shortName":"Supermarket","icon":{"prefix":"https:\/\/ss3.4sqi.net\/img\/categories_v2\/shops\/food_grocery_","suffix":".png"},"primary":true}],"photos":{"count":0,"groups":[]}},"referralId":"e-0-4b153455f964a5204fa923e3-26"},{"reasons":{"count":0,"items":[{"summary":"This spot is popular","type":"general","reasonName":"globalInteractionReason"}]},"venue":{"id":"4c652fa9c74c1b8dbd5ab383","name":"Aladdin's Notenhoek","location":{"address":"Jan Evertsenstraat 142","crossStreet":"Mercatorplein","lat":52.37028825641834,"lng":4.851114616610086,"labeledLatLngs":[{"label":"display","lat":52.37028825641834,"lng":4.851114616610086}],"distance":1200,"postalCode":"1056 EK","cc":"NL","city":"Amsterdam","state":"North Holland","country":"Netherlands","formattedAddress":["Jan Evertsenstraat 142 (Mercatorplein)","1056 EK Amsterdam","Netherlands"]},"categories":[{"id":"4bf58dd8d48988d1f9941735","name":"Food & Drink Shop","pluralName":"Food & Drink Shops","shortName":"Food & Drink","icon":{"prefix":"https:\/\/ss3.4sqi.net\/img\/categories_v2\/shops\/foodanddrink_","suffix":".png"},"primary":true}],"photos":{"count":0,"groups":[]}},"referralId":"e-0-4c652fa9c74c1b8dbd5ab383-27"},{"reasons":{"count":0,"items":[{"summary":"This spot is popular","type":"general","reasonName":"globalInteractionReason"}]},"venue":{"id":"5919b6ac5315934e1be9ca18","name":"Rayleigh&Ramsay Overtoom","location":{"address":"Zocherstraat 2","lat":52.3581331288116,"lng":4.857334050352378,"labeledLatLngs":[{"label":"display","lat":52.3581331288116,"lng":4.857334050352378}],"distance":1466,"postalCode":"1054LK","cc":"NL","neighborhood":"Overtoomse Sluis","city":"Amsterdam","state":"North Holland","country":"Netherlands","formattedAddress":["Zocherstraat 2","1054LK Amsterdam","Netherlands"]},"categories":[{"id":"4bf58dd8d48988d147941735","name":"Diner","pluralName":"Diners","shortName":"Diner","icon":{"prefix":"https:\/\/ss3.4sqi.net\/img\/categories_v2\/food\/diner_","suffix":".png"},"primary":true}],"photos":{"count":0,"groups":[]}},"referralId":"e-0-5919b6ac5315934e1be9ca18-28"},{"reasons":{"count":0,"items":[{"summary":"This spot is popular","type":"general","reasonName":"globalInteractionReason"}]},"venue":{"id":"5565f79b498e4238afef7f20","name":"Jumbo","location":{"address":"Baarsjesweg 303-305","lat":52.35879127541213,"lng":4.855097455691636,"labeledLatLngs":[{"label":"display","lat":52.35879127541213,"lng":4.855097455691636}],"distance":1297,"postalCode":"1058 AH","cc":"NL","city":"Amsterdam","state":"North Holland","country":"Netherlands","formattedAddress":["Baarsjesweg 303-305","1058 AH Amsterdam","Netherlands"]},"categories":[{"id":"52f2ab2ebcbc57f1066b8b46","name":"Supermarket","pluralName":"Supermarkets","shortName":"Supermarket","icon":{"prefix":"https:\/\/ss3.4sqi.net\/img\/categories_v2\/shops\/food_grocery_","suffix":".png"},"primary":true}],"photos":{"count":0,"groups":[]}},"referralId":"e-0-5565f79b498e4238afef7f20-29"}]}]}}